[
  {
    "id": "pp-stuttgart-1",
    "name": "Polizeipräsidium Stuttgart",
    "type": "praesidium",
    "city": "Stuttgart",
    "address": "Alexanderstraße 3, 70184 Stuttgart",
    "coordinates": [
      48.7758,
      9.1829
    ],
    "telefon": "0711 8990-0",
    "notdienst24h": true,
    "isActive": true,
    "lastModified": "2025-06-27T11:44:38.707Z",
    "email": "stuttgart.pp@polizei.bwl.de"
  },
  {
    "id": "rev-stuttgart-mitte",
    "name": "Polizeirevier Stuttgart-Mitte",
    "type": "revier",
    "city": "Stuttgart",
    "address": "Alexanderstraße 3, 70184 Stuttgart",
    "coordinates": [
      48.7758,
      9.1829
    ],
    "telefon": "0711 8990-3100",
    "notdienst24h": false,
    "isActive": true,
    "lastModified": "2025-06-27T11:44:38.708Z",
    "email": "stuttgart-mitte.prev@polizei.bwl.de",
    "parentId": "pp-stuttgart-1"
  },
  {
    "id": "rev-stuttgart-west",
    "name": "Polizeirevier Stuttgart-West",
    "type": "revier",
    "city": "Stuttgart",
    "address": "Bebelstraße 27, 70193 Stuttgart",
    "coordinates": [
      48.7648,
      9.1553
    ],
    "telefon": "0711 8990-3200",
    "notdienst24h": false,
    "isActive": true,
    "lastModified": "2025-06-27T11:44:38.708Z",
    "email": "stuttgart-west.prev@polizei.bwl.de",
    "parentId": "pp-stuttgart-1"
  },
  {
    "id": "rev-stuttgart-ost",
    "name": "Polizeirevier Stuttgart-Ost",
    "type": "revier",
    "city": "Stuttgart",
    "address": "Ostendstraße 76, 70188 Stuttgart",
    "coordinates": [
      48.7909,
      9.2158
    ],
    "telefon": "0711 8990-3300",
    "notdienst24h": false,
    "isActive": true,
    "lastModified": "2025-06-27T11:44:38.708Z",
    "email": "stuttgart-ost.prev@polizei.bwl.de",
    "parentId": "pp-stuttgart-1"
  },
  {
    "id": "rev-stuttgart-nord",
    "name": "Polizeirevier Stuttgart-Nord",
    "type": "revier",
    "city": "Stuttgart",
    "address": "Löwentorstraße 4, 70376 Stuttgart",
    "coordinates": [
      48.8019,
      9.1829
    ],
    "telefon": "0711 8990-3400",
    "notdienst24h": false,
    "isActive": true,
    "lastModified": "2025-06-27T11:44:38.708Z",
    "email": "stuttgart-nord.prev@polizei.bwl.de",
    "parentId": "pp-stuttgart-1"
  },
  {
    "id": "rev-stuttgart-sued",
    "name": "Polizeirevier Stuttgart-Süd",
    "type": "revier",
    "city": "Stuttgart",
    "address": "Tübinger Straße 99, 70178 Stuttgart",
    "coordinates": [
      48.7558,
      9.1829
    ],
    "telefon": "0711 8990-3500",
    "notdienst24h": false,
    "isActive": true,
    "lastModified": "2025-06-27T11:44:38.708Z",
    "email": "stuttgart-sued.prev@polizei.bwl.de",
    "parentId": "pp-stuttgart-1"
  },
  {
    "id": "pp-mannheim-1",
    "name": "Polizeipräsidium Mannheim",
    "type": "praesidium",
    "city": "Mannheim",
    "address": "L 6, 1, 68161 Mannheim",
    "coordinates": [
      49.4875,
      8.466
    ],
    "telefon": "0621 174-0",
    "notdienst24h": true,
    "isActive": true,
    "lastModified": "2025-06-27T11:44:38.708Z",
    "email": "mannheim.pp@polizei.bwl.de"
  },
  {
    "id": "rev-mannheim-mitte",
    "name": "Polizeirevier Mannheim-Mitte",
    "type": "revier",
    "city": "Mannheim",
    "address": "L 6, 1, 68161 Mannheim",
    "coordinates": [
      49.4875,
      8.466
    ],
    "telefon": "0621 174-3330",
    "notdienst24h": false,
    "isActive": true,
    "lastModified": "2025-06-27T11:44:38.708Z",
    "email": "mannheim-mitte.prev@polizei.bwl.de",
    "parentId": "pp-mannheim-1"
  },
  {
    "id": "rev-mannheim-neckarstadt",
    "name": "Polizeirevier Mannheim-Neckarstadt",
    "type": "revier",
    "city": "Mannheim",
    "address": "Dammstraße 30, 68169 Mannheim",
    "coordinates": [
      49.502,
      8.4778
    ],
    "telefon": "0621 174-3310",
    "notdienst24h": false,
    "isActive": true,
    "lastModified": "2025-06-27T11:44:38.708Z",
    "email": "mannheim-neckarstadt.prev@polizei.bwl.de",
    "parentId": "pp-mannheim-1"
  },
  {
    "id": "rev-heidelberg",
    "name": "Polizeirevier Heidelberg",
    "type": "revier",
    "city": "Heidelberg",
    "address": "Römerstraße 2-4, 69115 Heidelberg",
    "coordinates": [
      49.4093,
      8.6947
    ],
    "telefon": "06221 99-0",
    "notdienst24h": false,
    "isActive": true,
    "lastModified": "2025-06-27T11:44:38.708Z",
    "email": "heidelberg.prev@polizei.bwl.de",
    "parentId": "pp-mannheim-1"
  },
  {
    "id": "pp-karlsruhe-1",
    "name": "Polizeipräsidium Karlsruhe",
    "type": "praesidium",
    "city": "Karlsruhe",
    "address": "Markgrafenstraße 69, 76133 Karlsruhe",
    "coordinates": [
      49.0069,
      8.4037
    ],
    "telefon": "0721 666-0",
    "notdienst24h": true,
    "isActive": true,
    "lastModified": "2025-06-27T11:44:38.708Z",
    "email": "karlsruhe.pp@polizei.bwl.de"
  },
  {
    "id": "rev-karlsruhe-west",
    "name": "Polizeirevier Karlsruhe-West",
    "type": "revier",
    "city": "Karlsruhe",
    "address": "Hans-Sachs-Straße 2, 76133 Karlsruhe",
    "coordinates": [
      49.0049,
      8.38
    ],
    "telefon": "0721 666-3311",
    "notdienst24h": false,
    "isActive": true,
    "lastModified": "2025-06-27T11:44:38.708Z",
    "email": "karlsruhe-west.prev@polizei.bwl.de",
    "parentId": "pp-karlsruhe-1"
  },
  {
    "id": "rev-karlsruhe-ost",
    "name": "Polizeirevier Karlsruhe-Ost",
    "type": "revier",
    "city": "Karlsruhe",
    "address": "Liebigstraße 5, 76135 Karlsruhe",
    "coordinates": [
      49.0089,
      8.4237
    ],
    "telefon": "0721 666-3411",
    "notdienst24h": false,
    "isActive": true,
    "lastModified": "2025-06-27T11:44:38.708Z",
    "email": "karlsruhe-ost.prev@polizei.bwl.de",
    "parentId": "pp-karlsruhe-1"
  },
  {
    "id": "pp-pforzheim-1",
    "name": "Polizeipräsidium Pforzheim",
    "type": "praesidium",
    "city": "Pforzheim",
    "address": "Jahnstraße 52, 75173 Pforzheim",
    "coordinates": [
      48.8908,
      8.7003
    ],
    "telefon": "07231 186-0",
    "notdienst24h": true,
    "isActive": true,
    "lastModified": "2025-06-27T11:44:38.708Z",
    "email": "pforzheim.pp@polizei.bwl.de"
  },
  {
    "id": "rev-pforzheim",
    "name": "Polizeirevier Pforzheim",
    "type": "revier",
    "city": "Pforzheim",
    "address": "Jahnstraße 52, 75173 Pforzheim",
    "coordinates": [
      48.8908,
      8.7003
    ],
    "telefon": "07231 186-3311",
    "notdienst24h": false,
    "isActive": true,
    "lastModified": "2025-06-27T11:44:38.708Z",
    "email": "pforzheim.prev@polizei.bwl.de",
    "parentId": "pp-pforzheim-1"
  },
  {
    "id": "pp-freiburg-1",
    "name": "Polizeipräsidium Freiburg",
    "type": "praesidium",
    "city": "Freiburg",
    "address": "Bismarckallee 5, 79098 Freiburg",
    "coordinates": [
      47.996,
      7.8494
    ],
    "telefon": "0761 882-0",
    "notdienst24h": true,
    "isActive": true,
    "lastModified": "2025-06-27T11:44:38.708Z",
    "email": "freiburg.pp@polizei.bwl.de"
  },
  {
    "id": "rev-freiburg-nord",
    "name": "Polizeirevier Freiburg-Nord",
    "type": "revier",
    "city": "Freiburg",
    "address": "Bismarckallee 5, 79098 Freiburg",
    "coordinates": [
      47.996,
      7.8494
    ],
    "telefon": "0761 882-3100",
    "notdienst24h": false,
    "isActive": true,
    "lastModified": "2025-06-27T11:44:38.708Z",
    "email": "freiburg-nord.prev@polizei.bwl.de",
    "parentId": "pp-freiburg-1"
  },
  {
    "id": "rev-freiburg-sued",
    "name": "Polizeirevier Freiburg-Süd",
    "type": "revier",
    "city": "Freiburg",
    "address": "Weismannstraße 8, 79106 Freiburg",
    "coordinates": [
      47.9789,
      7.8572
    ],
    "telefon": "0761 882-3200",
    "notdienst24h": false,
    "isActive": true,
    "lastModified": "2025-06-27T11:44:38.708Z",
    "email": "freiburg-sued.prev@polizei.bwl.de",
    "parentId": "pp-freiburg-1"
  },
  {
    "id": "pp-konstanz-1",
    "name": "Polizeipräsidium Konstanz",
    "type": "praesidium",
    "city": "Konstanz",
    "address": "Spanierstraße 7/1, 78467 Konstanz",
    "coordinates": [
      47.6779,
      9.1732
    ],
    "telefon": "07531 995-0",
    "notdienst24h": true,
    "isActive": true,
    "lastModified": "2025-06-27T11:44:38.708Z",
    "email": "konstanz.pp@polizei.bwl.de"
  },
  {
    "id": "rev-konstanz",
    "name": "Polizeirevier Konstanz",
    "type": "revier",
    "city": "Konstanz",
    "address": "Spanierstraße 7/1, 78467 Konstanz",
    "coordinates": [
      47.6779,
      9.1732
    ],
    "telefon": "07531 995-2222",
    "notdienst24h": false,
    "isActive": true,
    "lastModified": "2025-06-27T11:44:38.708Z",
    "email": "konstanz.prev@polizei.bwl.de",
    "parentId": "pp-konstanz-1"
  },
  {
    "id": "pp-offenburg-1",
    "name": "Polizeipräsidium Offenburg",
    "type": "praesidium",
    "city": "Offenburg",
    "address": "Okenstraße 4, 77652 Offenburg",
    "coordinates": [
      48.4735,
      7.9417
    ],
    "telefon": "0781 21-0",
    "notdienst24h": true,
    "isActive": true,
    "lastModified": "2025-06-27T11:44:38.708Z",
    "email": "offenburg.pp@polizei.bwl.de"
  },
  {
    "id": "rev-offenburg",
    "name": "Polizeirevier Offenburg",
    "type": "revier",
    "city": "Offenburg",
    "address": "Okenstraße 4, 77652 Offenburg",
    "coordinates": [
      48.4735,
      7.9417
    ],
    "telefon": "0781 21-2200",
    "notdienst24h": false,
    "isActive": true,
    "lastModified": "2025-06-27T11:44:38.708Z",
    "email": "offenburg.prev@polizei.bwl.de",
    "parentId": "pp-offenburg-1"
  },
  {
    "id": "pp-aalen-1",
    "name": "Polizeipräsidium Aalen",
    "type": "praesidium",
    "city": "Aalen",
    "address": "Gartenstraße 101, 73430 Aalen",
    "coordinates": [
      48.8379,
      10.0933
    ],
    "telefon": "07361 524-0",
    "notdienst24h": true,
    "isActive": true,
    "lastModified": "2025-06-27T11:44:38.708Z",
    "email": "aalen.pp@polizei.bwl.de"
  },
  {
    "id": "rev-aalen",
    "name": "Polizeirevier Aalen",
    "type": "revier",
    "city": "Aalen",
    "address": "Gartenstraße 101, 73430 Aalen",
    "coordinates": [
      48.8379,
      10.0933
    ],
    "telefon": "07361 524-2333",
    "notdienst24h": false,
    "isActive": true,
    "lastModified": "2025-06-27T11:44:38.708Z",
    "email": "aalen.prev@polizei.bwl.de",
    "parentId": "pp-aalen-1"
  },
  {
    "id": "pp-heilbronn-1",
    "name": "Polizeipräsidium Heilbronn",
    "type": "praesidium",
    "city": "Heilbronn",
    "address": "Rollwagstraße 3, 74072 Heilbronn",
    "coordinates": [
      49.1427,
      9.2109
    ],
    "telefon": "07131 104-0",
    "notdienst24h": true,
    "isActive": true,
    "lastModified": "2025-06-27T11:44:38.708Z",
    "email": "heilbronn.pp@polizei.bwl.de"
  },
  {
    "id": "rev-heilbronn",
    "name": "Polizeirevier Heilbronn",
    "type": "revier",
    "city": "Heilbronn",
    "address": "Rollwagstraße 3, 74072 Heilbronn",
    "coordinates": [
      49.1427,
      9.2109
    ],
    "telefon": "07131 104-2500",
    "notdienst24h": false,
    "isActive": true,
    "lastModified": "2025-06-27T11:44:38.708Z",
    "email": "heilbronn.prev@polizei.bwl.de",
    "parentId": "pp-heilbronn-1"
  },
  {
    "id": "pp-ludwigsburg-1",
    "name": "Polizeipräsidium Ludwigsburg",
    "type": "praesidium",
    "city": "Ludwigsburg",
    "address": "Hindenburgstraße 55, 71638 Ludwigsburg",
    "coordinates": [
      48.8975,
      9.1906
    ],
    "telefon": "07141 18-0",
    "notdienst24h": true,
    "isActive": true,
    "lastModified": "2025-06-27T11:44:38.708Z",
    "email": "ludwigsburg.pp@polizei.bwl.de"
  },
  {
    "id": "rev-ludwigsburg",
    "name": "Polizeirevier Ludwigsburg",
    "type": "revier",
    "city": "Ludwigsburg",
    "address": "Hindenburgstraße 55, 71638 Ludwigsburg",
    "coordinates": [
      48.8975,
      9.1906
    ],
    "telefon": "07141 18-5353",
    "notdienst24h": false,
    "isActive": true,
    "lastModified": "2025-06-27T11:44:38.708Z",
    "email": "ludwigsburg.prev@polizei.bwl.de",
    "parentId": "pp-ludwigsburg-1"
  },
  {
    "id": "pp-reutlingen-1",
    "name": "Polizeipräsidium Reutlingen",
    "type": "praesidium",
    "city": "Reutlingen",
    "address": "Ringelbachstraße 124, 72760 Reutlingen",
    "coordinates": [
      48.4919,
      9.2044
    ],
    "telefon": "07121 942-0",
    "notdienst24h": true,
    "isActive": true,
    "lastModified": "2025-06-27T11:44:38.708Z",
    "email": "reutlingen.pp@polizei.bwl.de"
  },
  {
    "id": "rev-reutlingen",
    "name": "Polizeirevier Reutlingen",
    "type": "revier",
    "city": "Reutlingen",
    "address": "Ringelbachstraße 124, 72760 Reutlingen",
    "coordinates": [
      48.4919,
      9.2044
    ],
    "telefon": "07121 942-3300",
    "notdienst24h": false,
    "isActive": true,
    "lastModified": "2025-06-27T11:44:38.708Z",
    "email": "reutlingen.prev@polizei.bwl.de",
    "parentId": "pp-reutlingen-1"
  },
  {
    "id": "rev-tuebingen",
    "name": "Polizeirevier Tübingen",
    "type": "revier",
    "city": "Tübingen",
    "address": "Mühlbachäckerstraße 6, 72072 Tübingen",
    "coordinates": [
      48.5216,
      9.0576
    ],
    "telefon": "07071 972-8660",
    "notdienst24h": false,
    "isActive": true,
    "lastModified": "2025-06-27T11:44:38.708Z",
    "email": "tuebingen.prev@polizei.bwl.de",
    "parentId": "pp-reutlingen-1"
  },
  {
    "id": "pp-ulm-1",
    "name": "Polizeipräsidium Ulm",
    "type": "praesidium",
    "city": "Ulm",
    "address": "Münsterplatz 3, 89073 Ulm",
    "coordinates": [
      48.3984,
      9.9914
    ],
    "telefon": "0731 188-0",
    "notdienst24h": true,
    "isActive": true,
    "lastModified": "2025-06-27T11:44:38.708Z",
    "email": "ulm.pp@polizei.bwl.de"
  },
  {
    "id": "rev-ulm",
    "name": "Polizeirevier Ulm",
    "type": "revier",
    "city": "Ulm",
    "address": "Münsterplatz 3, 89073 Ulm",
    "coordinates": [
      48.3984,
      9.9914
    ],
    "telefon": "0731 188-3312",
    "notdienst24h": false,
    "isActive": true,
    "lastModified": "2025-06-27T11:44:38.708Z",
    "email": "ulm.prev@polizei.bwl.de",
    "parentId": "pp-ulm-1"
  },
  {
    "id": "rev-ravensburg",
    "name": "Polizeirevier Ravensburg",
    "type": "revier",
    "city": "Ravensburg",
    "address": "Gartenstraße 96, 88212 Ravensburg",
    "coordinates": [
      47.7814,
      9.6134
    ],
    "telefon": "0751 803-6666",
    "notdienst24h": false,
    "isActive": true,
    "lastModified": "2025-06-27T11:44:38.708Z",
    "email": "ravensburg.prev@polizei.bwl.de",
    "parentId": "pp-ulm-1"
  },
  {
    "id": "rev-friedrichshafen",
    "name": "Polizeirevier Friedrichshafen",
    "type": "revier",
    "city": "Friedrichshafen",
    "address": "Ailinger Straße 128, 88046 Friedrichshafen",
    "coordinates": [
      47.654,
      9.4741
    ],
    "telefon": "07541 701-0",
    "notdienst24h": false,
    "isActive": true,
    "lastModified": "2025-06-27T11:44:38.708Z",
    "email": "friedrichshafen.prev@polizei.bwl.de",
    "parentId": "pp-ulm-1"
  },
  {
    "id": "rev-villingen-schwenningen",
    "name": "Polizeirevier Villingen-Schwenningen",
    "type": "revier",
    "city": "Villingen-Schwenningen",
    "address": "Warenburgstraße 17, 78050 Villingen-Schwenningen",
    "coordinates": [
      48.0581,
      8.4593
    ],
    "telefon": "07721 601-0",
    "notdienst24h": false,
    "isActive": true,
    "lastModified": "2025-06-27T11:44:38.708Z",
    "email": "villingen-schwenningen.prev@polizei.bwl.de",
    "parentId": "pp-ulm-1"
  },
  {
    "id": "rev-bad-mergentheim",
    "name": "Polizeirevier Bad Mergentheim",
    "type": "revier",
    "city": "Bad Mergentheim",
    "address": "Wachbacher Straße 83, 97980 Bad Mergentheim",
    "coordinates": [
      49.4914,
      9.7742
    ],
    "telefon": "07931 54-0",
    "notdienst24h": false,
    "isActive": true,
    "lastModified": "2025-06-27T11:44:38.708Z",
    "email": "bad-mergentheim.prev@polizei.bwl.de",
    "parentId": "pp-ulm-1"
  },
  {
    "id": "rev-weinheim",
    "name": "Polizeirevier Weinheim",
    "type": "revier",
    "city": "Weinheim",
    "address": "Obertorstraße 3, 69469 Weinheim",
    "coordinates": [
      49.5481,
      8.6695
    ],
    "telefon": "06201 1003-0",
    "notdienst24h": false,
    "isActive": true,
    "lastModified": "2025-06-27T11:44:38.708Z",
    "email": "weinheim.prev@polizei.bwl.de",
    "parentId": "pp-ulm-1"
  },
  {
    "id": "rev-schwetzingen",
    "name": "Polizeirevier Schwetzingen",
    "type": "revier",
    "city": "Schwetzingen",
    "address": "Kurfürsten-Anlage 34, 68723 Schwetzingen",
    "coordinates": [
      49.3847,
      8.5761
    ],
    "telefon": "06202 288-0",
    "notdienst24h": false,
    "isActive": true,
    "lastModified": "2025-06-27T11:44:38.708Z",
    "email": "schwetzingen.prev@polizei.bwl.de",
    "parentId": "pp-ulm-1"
  },
  {
    "id": "rev-sinsheim",
    "name": "Polizeirevier Sinsheim",
    "type": "revier",
    "city": "Sinsheim",
    "address": "Allee 7, 74889 Sinsheim",
    "coordinates": [
      49.248,
      8.8795
    ],
    "telefon": "07261 690-0",
    "notdienst24h": false,
    "isActive": true,
    "lastModified": "2025-06-27T11:44:38.708Z",
    "email": "sinsheim.prev@polizei.bwl.de",
    "parentId": "pp-ulm-1"
  },
  {
    "id": "rev-wiesloch",
    "name": "Polizeirevier Wiesloch",
    "type": "revier",
    "city": "Wiesloch",
    "address": "Walldorfer Straße 19, 69168 Wiesloch",
    "coordinates": [
      49.2947,
      8.6982
    ],
    "telefon": "06222 571-80",
    "notdienst24h": false,
    "isActive": true,
    "lastModified": "2025-06-27T11:44:38.708Z",
    "email": "wiesloch.prev@polizei.bwl.de",
    "parentId": "pp-ulm-1"
  },
  {
    "id": "rev-bruchsal",
    "name": "Polizeirevier Bruchsal",
    "type": "revier",
    "city": "Bruchsal",
    "address": "Kaiserstraße 45, 76646 Bruchsal",
    "coordinates": [
      49.1244,
      8.5976
    ],
    "telefon": "07251 726-0",
    "notdienst24h": false,
    "isActive": true,
    "lastModified": "2025-06-27T11:44:38.708Z",
    "email": "bruchsal.prev@polizei.bwl.de",
    "parentId": "pp-ulm-1"
  },
  {
    "id": "rev-ettlingen",
    "name": "Polizeirevier Ettlingen",
    "type": "revier",
    "city": "Ettlingen",
    "address": "Pforzheimer Straße 13, 76275 Ettlingen",
    "coordinates": [
      48.9447,
      8.4087
    ],
    "telefon": "07243 32200",
    "notdienst24h": false,
    "isActive": true,
    "lastModified": "2025-06-27T11:44:38.708Z",
    "email": "ettlingen.prev@polizei.bwl.de",
    "parentId": "pp-ulm-1"
  },
  {
    "id": "rev-baden-baden",
    "name": "Polizeirevier Baden-Baden",
    "type": "revier",
    "city": "Baden-Baden",
    "address": "Stephanienstraße 14, 76530 Baden-Baden",
    "coordinates": [
      48.7584,
      8.2397
    ],
    "telefon": "07221 680-0",
    "notdienst24h": false,
    "isActive": true,
    "lastModified": "2025-06-27T11:44:38.708Z",
    "email": "baden-baden.prev@polizei.bwl.de",
    "parentId": "pp-ulm-1"
  },
  {
    "id": "rev-rastatt",
    "name": "Polizeirevier Rastatt",
    "type": "revier",
    "city": "Rastatt",
    "address": "Karlsruher Straße 60, 76437 Rastatt",
    "coordinates": [
      48.8587,
      8.2053
    ],
    "telefon": "07222 761-0",
    "notdienst24h": false,
    "isActive": true,
    "lastModified": "2025-06-27T11:44:38.708Z",
    "email": "rastatt.prev@polizei.bwl.de",
    "parentId": "pp-ulm-1"
  },
  {
    "id": "rev-calw",
    "name": "Polizeirevier Calw",
    "type": "revier",
    "city": "Calw",
    "address": "Stammheimer Straße 10, 75365 Calw",
    "coordinates": [
      48.7147,
      8.7395
    ],
    "telefon": "07051 161-0",
    "notdienst24h": false,
    "isActive": true,
    "lastModified": "2025-06-27T11:44:38.708Z",
    "email": "calw.prev@polizei.bwl.de",
    "parentId": "pp-ulm-1"
  },
  {
    "id": "rev-freudenstadt",
    "name": "Polizeirevier Freudenstadt",
    "type": "revier",
    "city": "Freudenstadt",
    "address": "Stuttgarter Straße 60, 72250 Freudenstadt",
    "coordinates": [
      48.4647,
      8.4115
    ],
    "telefon": "07441 536-0",
    "notdienst24h": false,
    "isActive": true,
    "lastModified": "2025-06-27T11:44:38.708Z",
    "email": "freudenstadt.prev@polizei.bwl.de",
    "parentId": "pp-ulm-1"
  },
  {
    "id": "rev-horb",
    "name": "Polizeirevier Horb",
    "type": "revier",
    "city": "Horb am Neckar",
    "address": "Neckarstraße 100, 72160 Horb am Neckar",
    "coordinates": [
      48.4478,
      8.6924
    ],
    "telefon": "07451 96-0",
    "notdienst24h": false,
    "isActive": true,
    "lastModified": "2025-06-27T11:44:38.708Z",
    "email": "horb.prev@polizei.bwl.de",
    "parentId": "pp-ulm-1"
  },
  {
    "id": "rev-nagold",
    "name": "Polizeirevier Nagold",
    "type": "revier",
    "city": "Nagold",
    "address": "Freudenstädter Straße 96, 72202 Nagold",
    "coordinates": [
      48.552,
      8.724
    ],
    "telefon": "07452 93-0",
    "notdienst24h": false,
    "isActive": true,
    "lastModified": "2025-06-27T11:44:38.708Z",
    "email": "nagold.prev@polizei.bwl.de",
    "parentId": "pp-ulm-1"
  },
  {
    "id": "rev-emmendingen",
    "name": "Polizeirevier Emmendingen",
    "type": "revier",
    "city": "Emmendingen",
    "address": "Schwarzwaldstraße 86, 79312 Emmendingen",
    "coordinates": [
      48.1214,
      7.8512
    ],
    "telefon": "07641 582-0",
    "notdienst24h": false,
    "isActive": true,
    "lastModified": "2025-06-27T11:44:38.708Z",
    "email": "emmendingen.prev@polizei.bwl.de",
    "parentId": "pp-ulm-1"
  },
  {
    "id": "rev-lahr",
    "name": "Polizeirevier Lahr",
    "type": "revier",
    "city": "Lahr",
    "address": "Wallstraße 1, 77933 Lahr",
    "coordinates": [
      48.3389,
      7.8728
    ],
    "telefon": "07821 277-0",
    "notdienst24h": false,
    "isActive": true,
    "lastModified": "2025-06-27T11:44:38.708Z",
    "email": "lahr.prev@polizei.bwl.de",
    "parentId": "pp-ulm-1"
  },
  {
    "id": "rev-kehl",
    "name": "Polizeirevier Kehl",
    "type": "revier",
    "city": "Kehl",
    "address": "Großherzog-Friedrich-Straße 9, 77694 Kehl",
    "coordinates": [
      48.57,
      7.8162
    ],
    "telefon": "07851 894-0",
    "notdienst24h": false,
    "isActive": true,
    "lastModified": "2025-06-27T11:44:38.708Z",
    "email": "kehl.prev@polizei.bwl.de",
    "parentId": "pp-ulm-1"
  },
  {
    "id": "rev-achern",
    "name": "Polizeirevier Achern",
    "type": "revier",
    "city": "Achern",
    "address": "Oberkircher Straße 5, 77855 Achern",
    "coordinates": [
      48.628,
      8.074
    ],
    "telefon": "07841 7066-0",
    "notdienst24h": false,
    "isActive": true,
    "lastModified": "2025-06-27T11:44:38.708Z",
    "email": "achern.prev@polizei.bwl.de",
    "parentId": "pp-ulm-1"
  },
  {
    "id": "rev-oberkirch",
    "name": "Polizeirevier Oberkirch",
    "type": "revier",
    "city": "Oberkirch",
    "address": "Bahnhofstraße 16, 77704 Oberkirch",
    "coordinates": [
      48.542,
      8.056
    ],
    "telefon": "07802 9110-0",
    "notdienst24h": false,
    "isActive": true,
    "lastModified": "2025-06-27T11:44:38.708Z",
    "email": "oberkirch.prev@polizei.bwl.de",
    "parentId": "pp-ulm-1"
  },
  {
    "id": "rev-haslach",
    "name": "Polizeirevier Haslach",
    "type": "revier",
    "city": "Haslach im Kinzigtal",
    "address": "Wilhelmstraße 96, 77716 Haslach im Kinzigtal",
    "coordinates": [
      48.279,
      8.089
    ],
    "telefon": "07832 975-0",
    "notdienst24h": false,
    "isActive": true,
    "lastModified": "2025-06-27T11:44:38.708Z",
    "email": "haslach.prev@polizei.bwl.de",
    "parentId": "pp-ulm-1"
  },
  {
    "id": "rev-loerrach",
    "name": "Polizeirevier Lörrach",
    "type": "revier",
    "city": "Lörrach",
    "address": "Spitalstraße 30, 79539 Lörrach",
    "coordinates": [
      47.6156,
      7.6615
    ],
    "telefon": "07621 176-0",
    "notdienst24h": false,
    "isActive": true,
    "lastModified": "2025-06-27T11:44:38.708Z",
    "email": "loerrach.prev@polizei.bwl.de",
    "parentId": "pp-ulm-1"
  },
  {
    "id": "rev-weil-am-rhein",
    "name": "Polizeirevier Weil am Rhein",
    "type": "revier",
    "city": "Weil am Rhein",
    "address": "Hauptstraße 323, 79576 Weil am Rhein",
    "coordinates": [
      47.5936,
      7.6196
    ],
    "telefon": "07621 9797-0",
    "notdienst24h": false,
    "isActive": true,
    "lastModified": "2025-06-27T11:44:38.708Z",
    "email": "weil-am-rhein.prev@polizei.bwl.de",
    "parentId": "pp-ulm-1"
  },
  {
    "id": "rev-rheinfelden",
    "name": "Polizeirevier Rheinfelden",
    "type": "revier",
    "city": "Rheinfelden",
    "address": "Friedrichstraße 50, 79618 Rheinfelden",
    "coordinates": [
      47.5575,
      7.7891
    ],
    "telefon": "07623 740-0",
    "notdienst24h": false,
    "isActive": true,
    "lastModified": "2025-06-27T11:44:38.708Z",
    "email": "rheinfelden.prev@polizei.bwl.de",
    "parentId": "pp-ulm-1"
  },
  {
    "id": "rev-schoenau",
    "name": "Polizeirevier Schönau",
    "type": "revier",
    "city": "Schönau im Schwarzwald",
    "address": "Talstraße 17, 79677 Schönau im Schwarzwald",
    "coordinates": [
      47.7942,
      7.9009
    ],
    "telefon": "07673 8890-0",
    "notdienst24h": false,
    "isActive": true,
    "lastModified": "2025-06-27T11:44:38.708Z",
    "email": "schoenau.prev@polizei.bwl.de",
    "parentId": "pp-ulm-1"
  },
  {
    "id": "rev-titisee-neustadt",
    "name": "Polizeirevier Titisee-Neustadt",
    "type": "revier",
    "city": "Titisee-Neustadt",
    "address": "Strandbadstraße 4, 79822 Titisee-Neustadt",
    "coordinates": [
      47.9135,
      8.2086
    ],
    "telefon": "07651 9336-0",
    "notdienst24h": false,
    "isActive": true,
    "lastModified": "2025-06-27T11:44:38.708Z",
    "email": "titisee-neustadt.prev@polizei.bwl.de",
    "parentId": "pp-ulm-1"
  },
  {
    "id": "rev-waldkirch",
    "name": "Polizeirevier Waldkirch",
    "type": "revier",
    "city": "Waldkirch",
    "address": "Lange Straße 52, 79183 Waldkirch",
    "coordinates": [
      48.0953,
      7.9644
    ],
    "telefon": "07681 4074-0",
    "notdienst24h": false,
    "isActive": true,
    "lastModified": "2025-06-27T11:44:38.708Z",
    "email": "waldkirch.prev@polizei.bwl.de",
    "parentId": "pp-ulm-1"
  },
  {
    "id": "rev-sigmaringen",
    "name": "Polizeirevier Sigmaringen",
    "type": "revier",
    "city": "Sigmaringen",
    "address": "Hohenzollernstraße 27, 72488 Sigmaringen",
    "coordinates": [
      48.0896,
      9.2133
    ],
    "telefon": "07571 104-0",
    "notdienst24h": false,
    "isActive": true,
    "lastModified": "2025-06-27T11:44:38.708Z",
    "email": "sigmaringen.prev@polizei.bwl.de",
    "parentId": "pp-ulm-1"
  },
  {
    "id": "rev-uberlingen",
    "name": "Polizeirevier Überlingen",
    "type": "revier",
    "city": "Überlingen",
    "address": "Bahnhofstraße 15, 88662 Überlingen",
    "coordinates": [
      47.7697,
      9.161
    ],
    "telefon": "07551 804-0",
    "notdienst24h": false,
    "isActive": true,
    "lastModified": "2025-06-27T11:44:38.708Z",
    "email": "ueberlingen.prev@polizei.bwl.de",
    "parentId": "pp-ulm-1"
  },
  {
    "id": "rev-stockach",
    "name": "Polizeirevier Stockach",
    "type": "revier",
    "city": "Stockach",
    "address": "Hauptstraße 26, 78333 Stockach",
    "coordinates": [
      47.8516,
      9.0097
    ],
    "telefon": "07771 9391-0",
    "notdienst24h": false,
    "isActive": true,
    "lastModified": "2025-06-27T11:44:38.708Z",
    "email": "stockach.prev@polizei.bwl.de",
    "parentId": "pp-ulm-1"
  },
  {
    "name": "Teststation",
    "type": "revier",
    "city": "Teststadt",
    "address": "Teststraße 1",
    "coordinates": [
      48,
      9
    ],
    "telefon": "123456789",
    "notdienst24h": false,
    "isActive": true,
    "id": "NaN",
    "parentId": "pp-ulm-1"
  },
  {
    "name": "Teststation 2",
    "type": "revier",
    "city": "Teststadt",
    "address": "Teststraße 2",
    "coordinates": [
      48.1,
      9.1
    ],
    "telefon": "123456789",
    "notdienst24h": false,
    "isActive": true,
    "id": "NaN",
    "parentId": "pp-ulm-1"
  },
  {
    "name": "Igor Mirosenski",
    "address": "Rohrdommelweg 2, 70378 Stuttgart",
    "city": "Stuttgart",
    "telefon": "017654070622",
    "email": "mirosenski@gmail.com",
    "type": "praesidium",
    "notdienst24h": true,
    "coordinates": [
      48.825514,
      9.200718
    ],
    "isActive": true,
    "id": "station-1751026699315",
    "lastModified": "2025-06-27T12:18:19.315Z"
  }
]